locality,latitude,longitude,sample_count,time_start_bp,time_end_bp,time_mean_bp,time_label,datasets,sample_ids
Frälsegården,58.1644,13.4547,107,3859,5336,4598,3859-5336 BP,"1240k,ho",FRA001.SG;FRA001_d.SG;FRA002.SG;FRA002_d.SG;FRA003.SG;FRA003_d.SG;FRA004.SG;FRA004_d.SG;FRA005.SG;FRA005_d.SG;FRA006.SG;FRA006_d.SG;FRA007.SG;FRA007_d.SG;FRA009.SG;FRA009_d.SG;FRA010.SG;FRA010_d.SG;FRA011.SG;FRA011_d.SG;FRA012.SG;FRA012_d.SG;FRA013.SG;FRA013_d.SG;FRA014.SG;FRA014_d.SG;FRA015.SG;FRA015_d.SG;FRA020.SG;FRA020_d.SG;FRA021.SG;FRA021_d.SG;FRA022.SG;FRA022_d.SG;FRA023.SG;FRA023_d.SG;FRA024.SG;FRA024_d.SG;FRA025.SG;FRA025_d.SG;FRA026.SG;FRA026_d.SG;FRA027.SG;FRA027_d.SG;FRA028.SG;FRA028_d.SG;FRA029.SG;FRA029_d.SG;FRA030.SG;FRA030_d.SG;FRA031.SG;FRA031_d.SG;FRA032.SG;FRA032_d.SG;FRA033.SG;FRA033_d.SG;FRA034.SG;FRA034_d.SG;FRA035.SG;FRA035_d.SG;FRA037.SG;FRA037_d.SG;FRA038.SG;FRA038_d.SG;FRA039.SG;FRA039_d.SG;FRA040.SG;FRA040_d.SG;FRA041.SG;FRA041_d.SG;FRA042.SG;FRA042_d.SG;FRA043.SG;FRA043_d.SG;FRA101.SG;FRA101_d.SG;FRA102.SG;FRA102_d.SG;FRA103.SG;FRA103_d.SG;FRA104.SG;FRA104_d.SG;FRA105.SG;FRA105_d.SG;FRA106.SG;FRA106_d.SG;FRA107.SG;FRA107_d.SG;FRA108.SG;FRA108_d.SG;FRA201.SG;FRA201_d.SG;FRA202.SG;FRA202_d.SG;FRA301.SG;FRA301_d.SG;FRA302.SG;FRA302_d.SG;Gok2.SG;Gok2_d.SG;Gok4.SG;Gok4_d.SG;gok008.SG;gok008_d.SG;gok009.SG;gok020.SG;gok020_d.SG
Rössberga,58.22959,13.60585,48,4488,5412,4950,4488-5412 BP,"1240k,ho",ROS001.SG;ROS001_d.SG;ROS002.SG;ROS002_d.SG;ROS003.SG;ROS003_d.SG;ROS004.SG;ROS004_d.SG;ROS005.SG;ROS005_d.SG;ROS007.SG;ROS007_d.SG;ROS008.SG;ROS008_d.SG;ROS014.SG;ROS014_d.SG;ROS016.SG;ROS016_d.SG;ROS018.SG;ROS018_d.SG;ROS021.SG;ROS021_d.SG;ROS023.SG;ROS023_d.SG;ROS024.SG;ROS024_d.SG;ROS025.SG;ROS025_d.SG;ROS026.SG;ROS026_d.SG;ROS027.SG;ROS027_d.SG;ROS029.SG;ROS029_d.SG;ROS030.SG;ROS030_d.SG;ROS032.SG;ROS032_d.SG;ROS033.SG;ROS033_d.SG;ROS036.SG;ROS036_d.SG;ROS038.SG;ROS038_d.SG;ROS039.SG;ROS039_d.SG;ros012.SG;ros012_d.SG
Hjelmars rör,58.1697,13.578,34,4815,5335,5075,4815-5335 BP,"1240k,ho",CGG105976.SG;CGG105976_d.SG;CGG105978.SG;CGG105978_d.SG;CGG105983.SG;CGG105983_d.SG;HJE001.SG;HJE001_d.SG;HJE002.SG;HJE002_d.SG;HJE003.SG;HJE003_d.SG;HJE004.SG;HJE004_d.SG;HJE005.SG;HJE005_d.SG;HJE006.SG;HJE006_d.SG;HJE007.SG;HJE007_d.SG;HJE008.SG;HJE008_d.SG;HJE009.SG;HJE009_d.SG;HJE010.SG;HJE010_d.SG;HJE011.SG;HJE011_d.SG;HJE012.SG;HJE012_d.SG;HJE013.SG;HJE013_d.SG;HJE014.SG;HJE014_d.SG
"Varnhem (Västra Götalands län, Skara)",58.38,13.65,31,726,1074,900,726-1074 BP,"1240k,ho",VK29.SG;VK30.SG;VK303.SG;VK304.SG;VK306.SG;VK308.SG;VK309.SG;VK31.SG;VK33.SG;VK34.SG;VK35.SG;VK39.SG;VK395.SG;VK396.SG;VK397.SG;VK398.SG;VK399.SG;VK40.SG;VK400.SG;VK401.SG;VK402.SG;VK403.SG;VK404.SG;VK405.SG;VK406.SG;VK407.SG;VK42.SG;VK424.SG;VK425.SG;VK426.SG;VK427.SG
"Frojel (Gotlands län, Gotland)",57.34,18.19,29,889,1061,975,889-1061 BP,"1240k,ho",VK428.SG;VK429.SG;VK430.SG;VK431.SG;VK432.SG;VK433.SG;VK434.SG;VK435.SG;VK437.SG;VK438.SG;VK439.SG;VK440.SG;VK441.SG;VK455.SG;VK456.SG;VK457.SG;VK458.SG;VK459.SG;VK460.SG;VK461.SG;VK462.SG;VK463.SG;VK464.SG;VK56.SG;VK57.SG;VK58.SG;VK60.SG;VK63.SG;VK64.SG
Landbogården,58.1775,13.4344,28,4546,5354,4950,4546-5354 BP,"1240k,ho",CGG105987.SG;CGG105987_d.SG;CGG105992.SG;CGG105992_d.SG;CGG105998.SG;CGG105998_d.SG;CGG106001.SG;CGG106001_d.SG;LAN001.SG;LAN001_d.SG;LAN002.SG;LAN002_d.SG;LAN003.SG;LAN003_d.SG;LAN004.SG;LAN004_d.SG;LAN005.SG;LAN005_d.SG;LAN006.SG;LAN006_d.SG;LAN007.SG;LAN007_d.SG;LAN008.SG;LAN008_d.SG;LAN009.SG;LAN009_d.SG;LAN010.SG;LAN010_d.SG
"Kopparsvik (Gotlands län, Gotland)",57.63,18.28,22,889,1061,975,889-1061 BP,"1240k,ho",VK232.SG;VK251.SG;VK450.SG;VK452.SG;VK453.SG;VK454.SG;VK467.SG;VK468.SG;VK469.SG;VK471.SG;VK472.SG;VK473.SG;VK474.SG;VK475.SG;VK476.SG;VK477.SG;VK478.SG;VK479.SG;VK48.SG;VK50.SG;VK51.SG;VK53.SG
"Västerbjers (Gotland, Gothem parish)",57.58,18.7,15,4383,5043,4713,4383-5043 BP,"1240k,ho",vbj001.SG;vbj002.SG;vbj003.SG;vbj004.SG;vbj006_UDG.SG;vbj006_nonUDG.SG;vbj007.SG;vbj008.SG;vbj008_d.SG;vbj012.SG;vbj013.SG;vbj014.SG;vbj015.SG;vbj017.SG;vbj018.SG
"Kronan (Kalmar län, Mörbylånga)",56.4,16.6,12,274,274,274,274 BP,"1240k,ho",kro001.SG;kro002.SG;kro004.SG;kro006.SG;kro008_viking.SG;kro009_viking.SG;kro010.SG;kro011.SG;kro012.SG;kro013.SG;kro014.SG;kro015.SG
Nästegården,58.1544,13.5222,12,3530,4128,3829,3530-4128 BP,"1240k,ho",CGG106007.SG;CGG106007_d.SG;NAS001.SG;NAS001_d.SG;NAS002.SG;NAS002_d.SG;NAS003.SG;NAS003_d.SG;NAS004.SG;NAS004_d.SG;NAS005.SG;NAS005_d.SG
"Falköping-5 (Västra Götalands län, Falköping)",58.166,13.573,8,3587,4009,3798,3587-4009 BP,"1240k,ho",NEO220.SG;NEO221.SG;NEO223.SG;NEO224.SG;NEO225.SG;NEO226.SG;NEO227.SG;NEO228.SG
"Kanaljorden (Östergötlands län, Motala)",58.535,15.046,8,7448,7868,7658,7448-7868 BP,"1240k,ho",I0011.AG;I0012.AG;I0013.AG;I0014.AG;I0015.AG;I0017.AG;I0017.SG;MotalaAA.AG
"Sandby Borg (Kalmar län, Mörbylånga)",56.55,16.63,7,1447,1503,1475,1447-1503 BP,"1240k,ho",snb010.SG;snb012.SG;snb013.SG;snb014.SG;snb017.SG;snb018.SG;snb019.SG
"Stora-Karlsö (Gotlands län, Gotland)",57.287,18.206,7,4027,7501,5764,4027-7501 BP,"1240k,ho",Ajvide52.SG;Ajvide53.SG;Ajvide58.SG;Ajvide59.SG;Ajvide70.SG;Ire8.SG;StoraForvar11.SG
"Vasterhus (Jämtlands län, Östersund)",63.2,14.5,7,669,953,811,669-953 BP,"1240k,ho",wes001.SG;wes003.SG;wes004.SG;wes005.SG;wes007.SG;wes008.SG;wes056.SG
Ansarve,57.509,18.14,6,4563,5601,5082,4563-5601 BP,"1240k,ho",ans003.SG;ans005.SG;ans008.SG;ans014.SG;ans016.SG;ans017.SG
"Karda (Jönköpings län, Värnamo)",57.18,13.93,6,826,1174,1000,826-1174 BP,"1240k,ho",VK265.SG;VK266.SG;VK267.SG;VK268.SG;VK269.SG;VK270.SG
"Oland (Kalmar län, Mörbylånga)",56.41526,16.4326046,5,763,1233,998,763-1233 BP,"1240k,ho",VK332.SG;VK353.SG;VK357.SG;VK442.SG;VK444.SG
"Sigtuna, church 1 (St. Gertrud)",59.61731,17.72361,5,726,1110,918,726-1110 BP,"1240k,ho",vik_grt035.SG;vik_grt036.SG;vik_stg020.SG;vik_stg021.SG;vik_stg026.SG
"Alsike (Uppsala län, Knivsta)",59.8,17.8,4,947,1377,1162,947-1377 BP,"1240k,ho",als001.SG;als007.SG;als010.SG;als015.SG
"Gökhem (Västra Götalands län, Falköping)",58.174,13.408,4,4597,5308,4952,4597-5308 BP,"1240k,ho",Gokhem2.SG;Gokhem4.SG;Gokhem5.SG;Gokhem7.SG
Hunnebostrand,58.4384,11.3007,4,4973,5398,5186,4973-5398 BP,"1240k,ho",HUN001.SG;HUN001_d.SG;HUN002.SG;HUN002_d.SG
Oland,56.8057977,16.7301606,4,773,1236,1004,773-1236 BP,"1240k,ho",VK334.SG;VK336.SG;VK358.SG;VK533.SG
"Sigtuna, cemetery 1 (Nunnnan)",59.61731,17.72361,4,726,1175,950,726-1175 BP,"1240k,ho",vik_84001.SG;vik_84005.SG;vik_84035.SG;vik_nuf002.SG
"Sigtuna, church 1 (Urmakaren)",59.61731,17.72361,4,684,1074,879,684-1074 BP,"1240k,ho",vik_urm035.SG;vik_urm045.SG;vik_urm160.SG;vik_urm161.SG
"Ajvide Settlement (Gotland, Eksta)",57.281086,18.169117,3,4735,5022,4878,4735-5022 BP,"1240k,ho",ajv28.SG;ajv36.SG;ajv54.SG
"Hemmor (Gotland, När parish)",57.22,18.57,3,4821,5348,5084,4821-5348 BP,"1240k,ho",hem001.SG;hem004.SG;hem005.SG
"Hindby mosse (Skåne län, Malmö)",55.565,13.036,3,4957,5289,5123,4957-5289 BP,"1240k,ho",NEO36.SG;NEO38.SG;NEO39.SG
Oland,57.3501182,17.0758422,3,1142,1258,1200,1142-1258 BP,"1240k,ho",VK359.SG;VK379.SG;VK382.SG
"Olljso (Skåne län, Kristianstad)",56.014689,14.068039,3,3574,4809,4192,3574-4809 BP,"1240k,ho",oll007.SG;oll009.SG;oll010.SG
"Sigtuna, mass grave (St. Lars)",59.61731,17.72361,3,726,1074,900,726-1074 BP,"1240k,ho",vik_97002.SG;vik_97026.SG;vik_97029.SG
Stora Förvar,57.285,17.971,3,8735,9324,9030,8735-9324 BP,"1240k,ho",SF11.SG;SF12.SG;SF9.SG
Abekås I,55.397,13.6,2,3113,3953,3533,3113-3953 BP,"1240k,ho",RISE175.SG;RISE179.SG
"Bergsgraven (Östergötlands län, Linköping)",58.415833,15.625278,2,4386,4598,4492,4386-4598 BP,"1240k,ho",ber1M.SG;ber2F.SG
Firse Sten,58.1531,13.5686,2,2943,3119,3031,2943-3119 BP,"1240k,ho",FIR001.SG;FIR001_d.SG
"Gorla (Stockholms län, Norrtälje)",59.7,18.7,2,715,1235,975,715-1235 BP,"1240k,ho",gor164.SG;gor358.SG
Holma,58.1498,13.6392,2,4582,4878,4730,4582-4878 BP,"1240k,ho",HOL001.SG;HOL001_d.SG
"Ljungbacka (Skåne län, Vellinge)",55.54,13.05,2,720,1180,950,720-1180 BP,"1240k,ho",VK108.SG;VK217.SG
Oland,56.7279175,16.7191707,2,826,1174,1000,826-1174 BP,"1240k,ho",VK335.SG;VK346.SG
Oland,56.7321539,16.721969,2,826,1268,1047,826-1268 BP,"1240k,ho",VK345.SG;VK350.SG
Oland,57.3426385,17.0209072,2,826,1174,1000,826-1174 BP,"1240k,ho",VK380.SG;VK443.SG
"Oland (Kalmar län, Mörbylånga)",56.4440667,16.5656284,2,815,1174,994,815-1174 BP,"1240k,ho",VK342.SG;VK354.SG
"Oland (Kalmar län, Mörbylånga)",56.5524197,16.6212723,2,826,1174,1000,826-1174 BP,"1240k,ho",VK343.SG;VK343_d.SG
"Oland (Kalmar län, Mörbylånga)",56.3268808,16.4066237,2,826,1174,1000,826-1174 BP,"1240k,ho",VK344.SG;VK344_d.SG
"Romback (Västernorrlands län, Ånge)",62.5,16.3,2,1447,1503,1475,1447-1503 BP,"1240k,ho",rtp001.SG;rtp003.SG
"Sigtuna, cemetery 3 (Kållandet)",59.61731,17.72361,2,726,1074,900,726-1074 BP,"1240k,ho",vik_KAL006.SG;vik_kal009.SG
"Sigtuna, cemetery 4 (Bensinst.)",59.61731,17.72361,2,726,1074,900,726-1074 BP,"1240k,ho",vik_2072.SG;vik_bns023.SG
"Sigtuna, cemetery 4 (Götes mack)",59.61731,17.72361,2,726,1074,900,726-1074 BP,"1240k,ho",vik_gtm021.SG;vik_gtm127.SG
"Skomsta (Uppsala län, Uppsala)",59.86,17.65,2,842,958,900,842-958 BP,"1240k,ho",VK517.SG;VK527.SG
"Ängamöllan (Skåne län, Kristianstad)",55.997,14.104,2,3224,3436,3330,3224-3436 BP,"1240k,ho",RISE207.SG;RISE210.SG
"Bredgården (Västra Götalands län, Ulricehamn)",57.742,13.403,1,9498,9798,9648,9498-9798 BP,"1240k,ho",NEO27.SG
"Dösemarken (Skåne län, Malmö)",55.564,12.946,1,4323,4459,4391,4323-4459 BP,"1240k,ho",NEO44.SG
"Eksta Kvie (Gotlands län, Gotland)",57.47,18.47,1,881,1169,1025,881-1169 BP,"1240k,ho",kvi001.SG
"Enbacken (Örebro län, Örebro)",59.37,15.22,1,839,1011,925,839-1011 BP,"1240k,ho",enb508.SG
"Evensås (Västra Götalands län, Uddevalla)",58.246,11.492,1,5938,6086,6012,5938-6086 BP,"1240k,ho",NEO260.SG
"Fredriksberg (Skåne län, Malmö)",55.557,13.059,1,3799,3991,3895,3799-3991 BP,"1240k,ho",RISE97.SG
"Frälsegården (Västra Götalands län, Falköping)",58.164,13.454,1,4873,4957,4915,4873-4957 BP,"1240k,ho",NEO259.SG
"Frösön (Jämtlands län, Östersund)",63.19,14.53,1,784,1016,900,784-1016 BP,"1240k,ho",frc007.SG
"Fullero (Uppsala län, Uppsala)",59.94,17.66,1,1555,1719,1637,1555-1719 BP,"1240k,ho",ful001.SG
"Gammelbyn Börstil (Uppsala län, Östhammar)",60.24,18.34,1,839,1011,925,839-1011 BP,"1240k,ho",gam872.SG
"Gannor (Gotlands län, Gotland)",57.3,18.6,1,1350,1350,1350,1350 BP,"1240k,ho",lau001.SG
"Hablingbo Havor (Gotlands län, Gotland)",57.47,18.47,1,842,958,900,842-958 BP,"1240k,ho",hav001.SG
"Hanaskede (Västra Götalands län, Skara)",58.391,13.558,1,9650,10010,9830,9650-10010 BP,"1240k,ho",NEO18.SG
"Hälsingland (Gävleborgs län, Hudiksvall)",61.658,17.004,1,4056,4556,4306,4056-4556 BP,"1240k,ho",Olsund.AG
"Kastanjegården (Skåne län, Malmö)",55.555,13.023,1,4324,4404,4364,4324-4404 BP,"1240k,ho",NEO51.SG
"L Beddinge 56 (Skåne län, Trelleborg)",55.381,13.445,1,3958,4206,4082,3958-4206 BP,"1240k,ho",RISE98.SG
"Lovö (Stockholms län, Ekerö)",59.33,17.84,1,1427,1479,1453,1427-1479 BP,"1240k,ho",lov001.SG
"Norrsunda (Stockholms län, Sigtuna)",59.59,17.89,1,742,970,856,742-970 BP,"1240k,ho",vls696.SG
Oland,56.8792364,16.7212765,1,826,1174,1000,826-1174 BP,"1240k,ho",VK347_V348_merge.SG
Oland,56.7207075,16.7115646,1,826,1174,1000,826-1174 BP,"1240k,ho",VK352.SG
"Oland (Kalmar län, Mörbylånga)",56.5765236,16.4602296,1,918,1186,1052,918-1186 BP,"1240k,ho",VK333.SG
"Oland (Kalmar län, Mörbylånga)",56.4775012,16.5761124,1,929,1209,1069,929-1209 BP,"1240k,ho",VK337.SG
"Oland (Kalmar län, Mörbylånga)",56.4593837,16.430668,1,974,1246,1110,974-1246 BP,"1240k,ho",VK349.SG
"Oland (Kalmar län, Mörbylånga)",56.2847285,16.409356,1,961,1233,1097,961-1233 BP,"1240k,ho",VK355.SG
"Oland (Kalmar län, Mörbylånga)",56.5350447,16.6050264,1,1434,1666,1550,1434-1666 BP,"1240k,ho",VK522.SG
"Oland (Kalmar län, Mörbylånga)",56.5046381,16.4293858,1,1534,1766,1650,1534-1766 BP,"1240k,ho",VK579.SG
"Oxie 7 (Skåne län, Vellinge)",55.545,13.098,1,1303,1507,1405,1303-1507 BP,"1240k,ho",RISE174.SG
Rossberga,58.183333,13.65,1,4860,5308,5084,4860-5308 BP,"1240k,ho",ros3.SG
Rössberga,58.183333,13.65,1,4819,5091,4955,4819-5091 BP,"1240k,ho",ros005_renamed.SG
"Sala (Västmanlands län, Sala)",59.9,16.6,1,947,1003,975,947-1003 BP,"1240k,ho",sal002.SG
"Sasta (Stockholms län, Täby)",59.44,18.07,1,715,1235,975,715-1235 BP,"1240k,ho",bro100.SG
"Sigtuna (Stockholms län, Upplands-Bro)",59.6,17.7,1,909,1069,989,909-1069 BP,"1240k,ho",stg018.SG
"Sigtuna, cemetery 2 (Kålsängen)",59.61731,17.72361,1,726,1074,900,726-1074 BP,"1240k,ho",vik_kls001.SG
"Sillvik (Västra Götalands län, Gothenburg)",57.736,11.744,1,3892,4040,3966,3892-4040 BP,"1240k,ho",NEO261.SG
"Skateholm-1 (Skåne län, Trelleborg)",55.386,13.481,1,6722,7002,6862,6722-7002 BP,"1240k,ho",NEO679.SG
"Skåne (Gävleborgs län, Hudiksvall)",61.658497,17.003742,1,5574,5918,5746,5574-5918 BP,"1240k,ho",Kvarlov5164.AG
Stora Bjers,57.792,18.538,1,8549,8993,8771,8549-8993 BP,"1240k,ho",SBj.SG
"Vattenledningen (Skåne län, Vellinge)",55.503,13.009,1,3703,3863,3783,3703-3863 BP,"1240k,ho",NEO52.SG
Vendel (Uppsala),60.16,17.59,1,1326,1394,1360,1326-1394 BP,"1240k,ho",ven001_viking.SG
"Viby (Skåne län, Kristianstad)",56.025,14.233,1,4391,4583,4487,4391-4583 BP,"1240k,ho",RISE94.SG
"Ängdala (Skåne län, Malmö)",55.588,13.113,1,5545,5673,5609,5545-5673 BP,"1240k,ho",NEO46.SG
